{
  "type": "FeatureCollection",
  "features": [
    {
      "type": "Feature",
      "geometry": {
        "type": "Point",
        "coordinates": [ 2.167139, 41.386308 ]
      },
      "properties": {
        "name": "Barcelona",
        "date": "1982-07-07",
        "marker-symbol": "star"
      }
    },
    {
      "type": "Feature",
      "geometry": {
        "type": "Point",
        "coordinates": [ 3.017571, 39.695263 ]
      },
      "properties": {
        "name": "Mallorca",
        "date": "1982-08-01",
        "notes": "each summer of my life"
      }
    },
    {
      "type": "Feature",
      "geometry": {
        "type": "Point",
        "coordinates": [ 13.406091, 52.519171 ]
      },
      "properties": {
        "name": "Berlin",
        "date": "1982-11-01"
      }
    },
    {
      "type": "Feature",
      "geometry": {
        "type": "Point",
        "coordinates": [ 12.315515, 45.440847 ]
      },
      "properties": {
        "name": "Venice",
        "date": "1994-07-01",
        "id": "Granpas trip"
      }
    },
    {
      "type": "Feature",
      "geometry": {
        "type": "Point",
        "coordinates": [ 7.962660, 46.536800 ]
      },
      "properties": {
        "name": "Yungfrau mountain",
        "date": "1994-07-01",
        "id": "Granpas trip"
      }
    },
    {
      "type": "Feature",
      "geometry": {
        "type": "Point",
        "coordinates": [ 2.352222, 48.856614 ]
      },
      "properties": {
        "name": "Paris",
        "date": "1996-07-01",
        "id": "English summer trip",
        "additional_times": [
          "2001-02-01"
        ]
      }
    },
    {
      "type": "Feature",
      "geometry": {
        "type": "Point",
        "coordinates": [ 0.119824, 51.511214 ]
      },
      "properties": {
        "name": "London",
        "date": "1996-07-01",
        "id": "English summer trip"
      }
    },
    {
      "type": "Feature",
      "geometry": {
        "type": "Point",
        "coordinates": [ 0.573453, 50.854259 ]
      },
      "properties": {
        "name": "Hastings",
        "date": "1996-07-01",
        "id": "English summer trip"
      }
    },
    {
      "type": "Feature",
      "geometry": {
        "type": "Point",
        "coordinates": [ -1.257726, 51.752021 ]
      },
      "properties": {
        "name": "Oxford",
        "date": "1996-07-01",
        "id": "English summer trip"
      }
    },
    {
      "type": "Feature",
      "geometry": {
        "type": "Point",
        "coordinates": [ -6.260310, 53.349805 ]
      },
      "properties": {
        "name": "Dublin",
        "date": "1997-07-01",
        "id": "Ireland summer trip"
      }
    },
    {
      "type": "Feature",
      "geometry": {
        "type": "Point",
        "coordinates": [ -74.005973, 40.714353 ]
      },
      "properties": {
        "name": "New York",
        "date": "1998-07-01",
        "id": "US summer trip"
      }
    },
    {
      "type": "Feature",
      "geometry": {
        "type": "Point",
        "coordinates": [ -75.163789, 39.952335 ]
      },
      "properties": {
        "name": "Philadelphia",
        "date": "1998-07-01",
        "id": "US summer trip"
      }
    },
    {
      "type": "Feature",
      "geometry": {
        "type": "Point",
        "coordinates": [ -84.512020, 39.103118 ]
      },
      "properties": {
        "name": "Cincinnati",
        "date": "1999-09-01",
        "id": "School interchange"
      }
    }
  ]
}